[
{"1640040": {"id": "1640040", "name": "2Stops2SF - Modern space next 12thStBart", "city": "Oakland", "lat": "37.804951", "lon": "None", "bedrooms": "1", "bathrooms": "1.0", "max_occupancy": "2"}, "14013609": {"id": "14013609", "name": "Sunny, cozy, and convenient", "city": "Oakland", "lat": "37.81133", "lon": "None", "bedrooms": "1", "bathrooms": "2.0", "max_occupancy": "2"}, "31195131": {"id": "31195131", "name": "Lakeside Retreat", "city": "Oakland", "lat": "37.80284", "lon": "None", "bedrooms": "1", "bathrooms": "1.0", "max_occupancy": "2"}, "6766479": {"id": "6766479", "name": "Downtown Cottage Walk to BART", "city": "Oakland", "lat": "37.80697", "lon": "None", "bedrooms": "1", "bathrooms": "1.0", "max_occupancy": "3"}, "27599109": {"id": "27599109", "name": "Uptown Oasis", "city": "Oakland", "lat": "37.8108", "lon": "None", "bedrooms": "1", "bathrooms": "2.5", "max_occupancy": "2"}, "41878549": {"id": "41878549", "name": "Beautiful Apartment near Lake Merritt with patio.", "city": "Oakland", "lat": "37.80283", "lon": "None", "bedrooms": "1", "bathrooms": "1.0", "max_occupancy": "2"}, "41726030": {"id": "41726030", "name": "Candy room", "city": "Oakland", "lat": "37.80367", "lon": "None", "bedrooms": "1", "bathrooms": "2.0", "max_occupancy": "1"}, "37933542": {"id": "37933542", "name": "Victorian Garden Condo near Oakland theaters", "city": "Oakland", "lat": "37.80751", "lon": "None", "bedrooms": "1", "bathrooms": "1.0", "max_occupancy": "2"}, "41726458": {"id": "41726458", "name": "Honey room", "city": "Oakland", "lat": "37.80356", "lon": "None", "bedrooms": "1", "bathrooms": "2.0", "max_occupancy": "2"}, "10963500": {"id": "10963500", "name": "Sunny, Artful  and Close to BART", "city": "Oakland", "lat": "37.80322", "lon": "None", "bedrooms": "1", "bathrooms": "1.0", "max_occupancy": "1"}, "41725698": {"id": "41725698", "name": "Sweet room", "city": "Oakland", "lat": "37.80505", "lon": "None", "bedrooms": "1", "bathrooms": "2.0", "max_occupancy": "2"}, "39155045": {"id": "39155045", "name": "Hack The Bay Area Rent Landscape In This!", "city": "Oakland", "lat": "37.80619", "lon": "None", "bedrooms": "0", "bathrooms": "0.5", "max_occupancy": "4"}, "36529546": {"id": "36529546", "name": "TRIBE \u2764\ufe0f Designer Home at Lake Merritt in Oakland", "city": "Oakland", "lat": "37.80529", "lon": "None", "bedrooms": "2", "bathrooms": "1.0", "max_occupancy": "5"}, "8147531": {"id": "8147531", "name": "Private parlor bedroom in uptown Oakland!", "city": "Oakland", "lat": "37.81004", "lon": "None", "bedrooms": "1", "bathrooms": "1.0", "max_occupancy": "1"}, "24830948": {"id": "24830948", "name": "Cozy Uptown Oakland Apartment", "city": "Oakland", "lat": "37.80808", "lon": "None", "bedrooms": "1", "bathrooms": "1.0", "max_occupancy": "4"}}
]